{"filename":"/Volumes/OSXData/Projects/apiumtech/force-front/__server/services/../fakeDb.json","collections":[{"name":"Accounts","data":[{"following":false,"name":"Apple","imgUrl":"/assets/img/logos/ikea.jpg","class":"B","contactInfo":{"validAddress":true,"country":"USA","city":"California","address":"1 Infinite Loop Cupertino, CA 95014","phoneNumber":"(000) 000 001","latitude":37.331793,"longitude":-122.029584},"modified":"2014-05-24T17:00:00.000Z","responsible":{"id":1,"name":"Tim Cook","avatar":"user-11.jpg"},"meta":{"revision":0,"created":1426117913191,"version":0},"$loki":1},{"following":false,"name":"Microsoft","imgUrl":"/assets/img/logos/ikea.jpg","class":"A","contactInfo":{"validAddress":false,"country":"USA","city":"Redmond, Washington","address":"1 Microsoft Way Redmond, WA 98052","phoneNumber":"+1 425-882-8080","latitude":47.6397343,"longitude":-122.1284005},"modified":"2014-05-24T17:00:00.000Z","responsible":{"id":2,"name":"Bill Gates","avatar":"user-13.jpg"},"meta":{"revision":0,"created":1426117913192,"version":0},"$loki":2},{"following":false,"name":"Yahoo","imgUrl":"/assets/img/logos/ikea.jpg","class":"A","contactInfo":{"validAddress":false,"country":"USA","city":"New York","address":"229 W 43rd St NY 10036â€Ž","phoneNumber":"(000) 000 002","latitude":40.757471,"longitude":-73.987732},"modified":"2014-05-24T17:00:00.000Z","responsible":{"id":3,"name":"Marissa Mayer","avatar":"user-14.jpg"},"meta":{"revision":0,"created":1426117913192,"version":0},"$loki":3},{"following":false,"name":"IBM","imgUrl":"/assets/img/logos/ikea.jpg","class":"A","contactInfo":{"validAddress":false,"country":"USA","city":"New York","address":"1 New Orchard Road, Armonk","phoneNumber":"914-499-1900","latitude":41.108304,"longitude":-73.720468},"modified":"2014-05-24T17:00:00.000Z","responsible":{"id":4,"name":"Ginni Rometty","avatar":"user-15.jpg"},"meta":{"revision":0,"created":1426117913192,"version":0},"$loki":4},{"following":false,"name":"fake-account-0","imgUrl":"/assets/img/logos/ikea.jpg","class":"A","contactInfo":{"validAddress":true,"country":"fake-country","city":"fake-city","address":"0 fake address","phoneNumber":"0(000) 000 001","latitude":37.381792999999995,"longitude":-121.939584},"modified":"2014-05-24T17:00:00.000Z","responsible":{"id":1,"name":"Tim Cook","avatar":"user-11.jpg"},"meta":{"revision":0,"created":1426117913192,"version":0},"$loki":5},{"following":false,"name":"fake-account-1","imgUrl":"/assets/img/logos/ikea.jpg","class":"B","contactInfo":{"validAddress":true,"country":"fake-country","city":"fake-city","address":"1 fake address","phoneNumber":"1(000) 000 001","latitude":37.491792999999994,"longitude":-121.869584},"modified":"2014-05-24T17:00:00.000Z","responsible":{"id":2,"name":"Bill Gates","avatar":"user-13.jpg"},"meta":{"revision":0,"created":1426117913192,"version":0},"$loki":6},{"following":false,"name":"fake-account-2","imgUrl":"/assets/img/logos/ikea.jpg","class":"C","contactInfo":{"validAddress":true,"country":"fake-country","city":"fake-city","address":"2 fake address","phoneNumber":"2(000) 000 001","latitude":37.591792999999996,"longitude":-121.739584},"modified":"2014-05-24T17:00:00.000Z","responsible":{"id":3,"name":"Marissa Mayer","avatar":"user-14.jpg"},"meta":{"revision":0,"created":1426117913192,"version":0},"$loki":7},{"following":false,"name":"fake-account-3","imgUrl":"/assets/img/logos/ikea.jpg","class":"A","contactInfo":{"validAddress":true,"country":"fake-country","city":"fake-city","address":"3 fake address","phoneNumber":"3(000) 000 001","latitude":37.711793,"longitude":-121.599584},"modified":"2014-05-24T17:00:00.000Z","responsible":{"id":4,"name":"Ginni Rometty","avatar":"user-15.jpg"},"meta":{"revision":0,"created":1426117913192,"version":0},"$loki":8},{"following":false,"name":"fake-account-4","imgUrl":"/assets/img/logos/ikea.jpg","class":"B","contactInfo":{"validAddress":true,"country":"fake-country","city":"fake-city","address":"4 fake address","phoneNumber":"4(000) 000 001","latitude":37.751793,"longitude":-121.869584},"modified":"2014-05-24T17:00:00.000Z","responsible":{"id":1,"name":"Tim Cook","avatar":"user-11.jpg"},"meta":{"revision":0,"created":1426117913192,"version":0},"$loki":9},{"following":false,"name":"fake-account-5","imgUrl":"/assets/img/logos/ikea.jpg","class":"C","contactInfo":{"validAddress":true,"country":"fake-country","city":"fake-city","address":"5 fake address","phoneNumber":"5(000) 000 001","latitude":37.751793,"longitude":-121.549584},"modified":"2014-05-24T17:00:00.000Z","responsible":{"id":2,"name":"Bill Gates","avatar":"user-13.jpg"},"meta":{"revision":0,"created":1426117913192,"version":0},"$loki":10},{"following":false,"name":"fake-account-6","imgUrl":"/assets/img/logos/ikea.jpg","class":"A","contactInfo":{"validAddress":true,"country":"fake-country","city":"fake-city","address":"6 fake address","phoneNumber":"6(000) 000 001","latitude":37.571793,"longitude":-120.849584},"modified":"2014-05-24T17:00:00.000Z","responsible":{"id":3,"name":"Marissa Mayer","avatar":"user-14.jpg"},"meta":{"revision":0,"created":1426117913192,"version":0},"$loki":11},{"following":false,"name":"fake-account-7","imgUrl":"/assets/img/logos/ikea.jpg","class":"B","contactInfo":{"validAddress":true,"country":"fake-country","city":"fake-city","address":"7 fake address","phoneNumber":"7(000) 000 001","latitude":38.711793,"longitude":-121.749584},"modified":"2014-05-24T17:00:00.000Z","responsible":{"id":4,"name":"Ginni Rometty","avatar":"user-15.jpg"},"meta":{"revision":0,"created":1426117913192,"version":0},"$loki":12},{"following":false,"name":"fake-account-8","imgUrl":"/assets/img/logos/ikea.jpg","class":"C","contactInfo":{"validAddress":true,"country":"fake-country","city":"fake-city","address":"8 fake address","phoneNumber":"8(000) 000 001","latitude":37.991792999999994,"longitude":-121.719584},"modified":"2014-05-24T17:00:00.000Z","responsible":{"id":1,"name":"Tim Cook","avatar":"user-11.jpg"},"meta":{"revision":0,"created":1426117913192,"version":0},"$loki":13},{"following":false,"name":"fake-account-9","imgUrl":"/assets/img/logos/ikea.jpg","class":"A","contactInfo":{"validAddress":true,"country":"fake-country","city":"fake-city","address":"9 fake address","phoneNumber":"9(000) 000 001","latitude":38.501793,"longitude":-121.839584},"modified":"2014-05-24T17:00:00.000Z","responsible":{"id":2,"name":"Bill Gates","avatar":"user-13.jpg"},"meta":{"revision":0,"created":1426117913192,"version":0},"$loki":14},{"following":false,"name":"fake-account-10","imgUrl":"/assets/img/logos/ikea.jpg","class":"B","contactInfo":{"validAddress":true,"country":"fake-country","city":"fake-city","address":"10 fake address","phoneNumber":"10(000) 000 001","latitude":38.101793,"longitude":-120.459584},"modified":"2014-05-24T17:00:00.000Z","responsible":{"id":3,"name":"Marissa Mayer","avatar":"user-14.jpg"},"meta":{"revision":0,"created":1426117913192,"version":0},"$loki":15},{"following":false,"name":"fake-account-11","imgUrl":"/assets/img/logos/ikea.jpg","class":"C","contactInfo":{"validAddress":true,"country":"fake-country","city":"fake-city","address":"11 fake address","phoneNumber":"11(000) 000 001","latitude":37.751793,"longitude":-121.739584},"modified":"2014-05-24T17:00:00.000Z","responsible":{"id":4,"name":"Ginni Rometty","avatar":"user-15.jpg"},"meta":{"revision":0,"created":1426117913192,"version":0},"$loki":16},{"following":false,"name":"fake-account-12","imgUrl":"/assets/img/logos/ikea.jpg","class":"A","contactInfo":{"validAddress":true,"country":"fake-country","city":"fake-city","address":"12 fake address","phoneNumber":"12(000) 000 001","latitude":38.311792999999994,"longitude":-121.739584},"modified":"2014-05-24T17:00:00.000Z","responsible":{"id":1,"name":"Tim Cook","avatar":"user-11.jpg"},"meta":{"revision":0,"created":1426117913192,"version":0},"$loki":17},{"following":false,"name":"fake-account-13","imgUrl":"/assets/img/logos/ikea.jpg","class":"B","contactInfo":{"validAddress":true,"country":"fake-country","city":"fake-city","address":"13 fake address","phoneNumber":"13(000) 000 001","latitude":38.711793,"longitude":-120.979584},"modified":"2014-05-24T17:00:00.000Z","responsible":{"id":2,"name":"Bill Gates","avatar":"user-13.jpg"},"meta":{"revision":0,"created":1426117913192,"version":0},"$loki":18},{"following":false,"name":"fake-account-14","imgUrl":"/assets/img/logos/ikea.jpg","class":"C","contactInfo":{"validAddress":true,"country":"fake-country","city":"fake-city","address":"14 fake address","phoneNumber":"14(000) 000 001","latitude":39.021792999999995,"longitude":-120.899584},"modified":"2014-05-24T17:00:00.000Z","responsible":{"id":3,"name":"Marissa Mayer","avatar":"user-14.jpg"},"meta":{"revision":0,"created":1426117913192,"version":0},"$loki":19},{"following":false,"name":"fake-account-15","imgUrl":"/assets/img/logos/ikea.jpg","class":"A","contactInfo":{"validAddress":true,"country":"fake-country","city":"fake-city","address":"15 fake address","phoneNumber":"15(000) 000 001","latitude":38.811792999999994,"longitude":-120.189584},"modified":"2014-05-24T17:00:00.000Z","responsible":{"id":4,"name":"Ginni Rometty","avatar":"user-15.jpg"},"meta":{"revision":0,"created":1426117913192,"version":0},"$loki":20},{"following":false,"name":"fake-account-16","imgUrl":"/assets/img/logos/ikea.jpg","class":"B","contactInfo":{"validAddress":true,"country":"fake-country","city":"fake-city","address":"16 fake address","phoneNumber":"16(000) 000 001","latitude":38.091792999999996,"longitude":-120.199584},"modified":"2014-05-24T17:00:00.000Z","responsible":{"id":1,"name":"Tim Cook","avatar":"user-11.jpg"},"meta":{"revision":0,"created":1426117913192,"version":0},"$loki":21},{"following":false,"name":"fake-account-17","imgUrl":"/assets/img/logos/ikea.jpg","class":"C","contactInfo":{"validAddress":true,"country":"fake-country","city":"fake-city","address":"17 fake address","phoneNumber":"17(000) 000 001","latitude":37.711793,"longitude":-119.299584},"modified":"2014-05-24T17:00:00.000Z","responsible":{"id":2,"name":"Bill Gates","avatar":"user-13.jpg"},"meta":{"revision":0,"created":1426117913192,"version":0},"$loki":22},{"following":false,"name":"fake-account-18","imgUrl":"/assets/img/logos/ikea.jpg","class":"A","contactInfo":{"validAddress":true,"country":"fake-country","city":"fake-city","address":"18 fake address","phoneNumber":"18(000) 000 001","latitude":40.011793,"longitude":-121.779584},"modified":"2014-05-24T17:00:00.000Z","responsible":{"id":3,"name":"Marissa Mayer","avatar":"user-14.jpg"},"meta":{"revision":0,"created":1426117913192,"version":0},"$loki":23},{"following":false,"name":"fake-account-19","imgUrl":"/assets/img/logos/ikea.jpg","class":"B","contactInfo":{"validAddress":true,"country":"fake-country","city":"fake-city","address":"19 fake address","phoneNumber":"19(000) 000 001","latitude":40.411792999999996,"longitude":-121.389584},"modified":"2014-05-24T17:00:00.000Z","responsible":{"id":4,"name":"Ginni Rometty","avatar":"user-15.jpg"},"meta":{"revision":0,"created":1426117913192,"version":0},"$loki":24},{"following":false,"name":"fake-account-20","imgUrl":"/assets/img/logos/ikea.jpg","class":"C","contactInfo":{"validAddress":true,"country":"fake-country","city":"fake-city","address":"20 fake address","phoneNumber":"20(000) 000 001","latitude":40.011793,"longitude":-118.709584},"modified":"2014-05-24T17:00:00.000Z","responsible":{"id":1,"name":"Tim Cook","avatar":"user-11.jpg"},"meta":{"revision":0,"created":1426117913192,"version":0},"$loki":25},{"following":false,"name":"fake-account-21","imgUrl":"/assets/img/logos/ikea.jpg","class":"A","contactInfo":{"validAddress":true,"country":"fake-country","city":"fake-city","address":"21 fake address","phoneNumber":"21(000) 000 001","latitude":39.361793,"longitude":-118.659584},"modified":"2014-05-24T17:00:00.000Z","responsible":{"id":2,"name":"Bill Gates","avatar":"user-13.jpg"},"meta":{"revision":0,"created":1426117913192,"version":0},"$loki":26},{"following":false,"name":"fake-account-22","imgUrl":"/assets/img/logos/ikea.jpg","class":"B","contactInfo":{"validAddress":true,"country":"fake-country","city":"fake-city","address":"22 fake address","phoneNumber":"22(000) 000 001","latitude":37.431793,"longitude":-118.339584},"modified":"2014-05-24T17:00:00.000Z","responsible":{"id":3,"name":"Marissa Mayer","avatar":"user-14.jpg"},"meta":{"revision":0,"created":1426117913192,"version":0},"$loki":27},{"following":false,"name":"fake-account-23","imgUrl":"/assets/img/logos/ikea.jpg","class":"C","contactInfo":{"validAddress":true,"country":"fake-country","city":"fake-city","address":"23 fake address","phoneNumber":"23(000) 000 001","latitude":41.391793,"longitude":-119.159584},"modified":"2014-05-24T17:00:00.000Z","responsible":{"id":4,"name":"Ginni Rometty","avatar":"user-15.jpg"},"meta":{"revision":0,"created":1426117913192,"version":0},"$loki":28},{"following":false,"name":"fake-account-24","imgUrl":"/assets/img/logos/ikea.jpg","class":"A","contactInfo":{"validAddress":true,"country":"fake-country","city":"fake-city","address":"24 fake address","phoneNumber":"24(000) 000 001","latitude":38.791793,"longitude":-120.399584},"modified":"2014-05-24T17:00:00.000Z","responsible":{"id":1,"name":"Tim Cook","avatar":"user-11.jpg"},"meta":{"revision":0,"created":1426117913192,"version":0},"$loki":29},{"following":false,"name":"fake-account-25","imgUrl":"/assets/img/logos/ikea.jpg","class":"B","contactInfo":{"validAddress":true,"country":"fake-country","city":"fake-city","address":"25 fake address","phoneNumber":"25(000) 000 001","latitude":37.741792999999994,"longitude":-119.449584},"modified":"2014-05-24T17:00:00.000Z","responsible":{"id":2,"name":"Bill Gates","avatar":"user-13.jpg"},"meta":{"revision":0,"created":1426117913192,"version":0},"$loki":30},{"following":false,"name":"fake-account-26","imgUrl":"/assets/img/logos/ikea.jpg","class":"C","contactInfo":{"validAddress":true,"country":"fake-country","city":"fake-city","address":"26 fake address","phoneNumber":"26(000) 000 001","latitude":39.381792999999995,"longitude":-117.049584},"modified":"2014-05-24T17:00:00.000Z","responsible":{"id":3,"name":"Marissa Mayer","avatar":"user-14.jpg"},"meta":{"revision":0,"created":1426117913192,"version":0},"$loki":31},{"following":false,"name":"fake-account-27","imgUrl":"/assets/img/logos/ikea.jpg","class":"A","contactInfo":{"validAddress":true,"country":"fake-country","city":"fake-city","address":"27 fake address","phoneNumber":"27(000) 000 001","latitude":39.741793,"longitude":-117.169584},"modified":"2014-05-24T17:00:00.000Z","responsible":{"id":4,"name":"Ginni Rometty","avatar":"user-15.jpg"},"meta":{"revision":0,"created":1426117913192,"version":0},"$loki":32},{"following":false,"name":"fake-account-28","imgUrl":"/assets/img/logos/ikea.jpg","class":"B","contactInfo":{"validAddress":true,"country":"fake-country","city":"fake-city","address":"28 fake address","phoneNumber":"28(000) 000 001","latitude":42.011793,"longitude":-118.899584},"modified":"2014-05-24T17:00:00.000Z","responsible":{"id":1,"name":"Tim Cook","avatar":"user-11.jpg"},"meta":{"revision":0,"created":1426117913192,"version":0},"$loki":33},{"following":false,"name":"fake-account-29","imgUrl":"/assets/img/logos/ikea.jpg","class":"C","contactInfo":{"validAddress":true,"country":"fake-country","city":"fake-city","address":"29 fake address","phoneNumber":"29(000) 000 001","latitude":40.671792999999994,"longitude":-121.659584},"modified":"2014-05-24T17:00:00.000Z","responsible":{"id":2,"name":"Bill Gates","avatar":"user-13.jpg"},"meta":{"revision":0,"created":1426117913192,"version":0},"$loki":34},{"following":false,"name":"fake-account-30","imgUrl":"/assets/img/logos/ikea.jpg","class":"A","contactInfo":{"validAddress":true,"country":"fake-country","city":"fake-city","address":"30 fake address","phoneNumber":"30(000) 000 001","latitude":42.651793,"longitude":-116.069584},"modified":"2014-05-24T17:00:00.000Z","responsible":{"id":3,"name":"Marissa Mayer","avatar":"user-14.jpg"},"meta":{"revision":0,"created":1426117913192,"version":0},"$loki":35},{"following":false,"name":"fake-account-31","imgUrl":"/assets/img/logos/ikea.jpg","class":"B","contactInfo":{"validAddress":true,"country":"fake-country","city":"fake-city","address":"31 fake address","phoneNumber":"31(000) 000 001","latitude":40.951792999999995,"longitude":-118.169584},"modified":"2014-05-24T17:00:00.000Z","responsible":{"id":4,"name":"Ginni Rometty","avatar":"user-15.jpg"},"meta":{"revision":0,"created":1426117913192,"version":0},"$loki":36},{"following":false,"name":"fake-account-32","imgUrl":"/assets/img/logos/ikea.jpg","class":"C","contactInfo":{"validAddress":true,"country":"fake-country","city":"fake-city","address":"32 fake address","phoneNumber":"32(000) 000 001","latitude":43.301792999999996,"longitude":-119.959584},"modified":"2014-05-24T17:00:00.000Z","responsible":{"id":1,"name":"Tim Cook","avatar":"user-11.jpg"},"meta":{"revision":0,"created":1426117913192,"version":0},"$loki":37},{"following":false,"name":"fake-account-33","imgUrl":"/assets/img/logos/ikea.jpg","class":"A","contactInfo":{"validAddress":true,"country":"fake-country","city":"fake-city","address":"33 fake address","phoneNumber":"33(000) 000 001","latitude":42.211793,"longitude":-116.119584},"modified":"2014-05-24T17:00:00.000Z","responsible":{"id":2,"name":"Bill Gates","avatar":"user-13.jpg"},"meta":{"revision":0,"created":1426117913192,"version":0},"$loki":38},{"following":false,"name":"fake-account-34","imgUrl":"/assets/img/logos/ikea.jpg","class":"B","contactInfo":{"validAddress":true,"country":"fake-country","city":"fake-city","address":"34 fake address","phoneNumber":"34(000) 000 001","latitude":40.671792999999994,"longitude":-118.019584},"modified":"2014-05-24T17:00:00.000Z","responsible":{"id":3,"name":"Marissa Mayer","avatar":"user-14.jpg"},"meta":{"revision":0,"created":1426117913192,"version":0},"$loki":39},{"following":false,"name":"fake-account-35","imgUrl":"/assets/img/logos/ikea.jpg","class":"C","contactInfo":{"validAddress":true,"country":"fake-country","city":"fake-city","address":"35 fake address","phoneNumber":"35(000) 000 001","latitude":42.301792999999996,"longitude":-117.949584},"modified":"2014-05-24T17:00:00.000Z","responsible":{"id":4,"name":"Ginni Rometty","avatar":"user-15.jpg"},"meta":{"revision":0,"created":1426117913192,"version":0},"$loki":40},{"following":false,"name":"fake-account-36","imgUrl":"/assets/img/logos/ikea.jpg","class":"A","contactInfo":{"validAddress":true,"country":"fake-country","city":"fake-city","address":"36 fake address","phoneNumber":"36(000) 000 001","latitude":40.551792999999996,"longitude":-115.759584},"modified":"2014-05-24T17:00:00.000Z","responsible":{"id":1,"name":"Tim Cook","avatar":"user-11.jpg"},"meta":{"revision":0,"created":1426117913192,"version":0},"$loki":41},{"following":false,"name":"fake-account-37","imgUrl":"/assets/img/logos/ikea.jpg","class":"B","contactInfo":{"validAddress":true,"country":"fake-country","city":"fake-city","address":"37 fake address","phoneNumber":"37(000) 000 001","latitude":39.931793,"longitude":-115.799584},"modified":"2014-05-24T17:00:00.000Z","responsible":{"id":2,"name":"Bill Gates","avatar":"user-13.jpg"},"meta":{"revision":0,"created":1426117913192,"version":0},"$loki":42},{"following":false,"name":"fake-account-38","imgUrl":"/assets/img/logos/ikea.jpg","class":"C","contactInfo":{"validAddress":true,"country":"fake-country","city":"fake-city","address":"38 fake address","phoneNumber":"38(000) 000 001","latitude":40.191793,"longitude":-117.699584},"modified":"2014-05-24T17:00:00.000Z","responsible":{"id":3,"name":"Marissa Mayer","avatar":"user-14.jpg"},"meta":{"revision":0,"created":1426117913192,"version":0},"$loki":43},{"following":false,"name":"fake-account-39","imgUrl":"/assets/img/logos/ikea.jpg","class":"A","contactInfo":{"validAddress":true,"country":"fake-country","city":"fake-city","address":"39 fake address","phoneNumber":"39(000) 000 001","latitude":37.791793,"longitude":-120.349584},"modified":"2014-05-24T17:00:00.000Z","responsible":{"id":4,"name":"Ginni Rometty","avatar":"user-15.jpg"},"meta":{"revision":0,"created":1426117913192,"version":0},"$loki":44},{"following":false,"name":"fake-account-40","imgUrl":"/assets/img/logos/ikea.jpg","class":"B","contactInfo":{"validAddress":true,"country":"fake-country","city":"fake-city","address":"40 fake address","phoneNumber":"40(000) 000 001","latitude":40.381792999999995,"longitude":-115.559584},"modified":"2014-05-24T17:00:00.000Z","responsible":{"id":1,"name":"Tim Cook","avatar":"user-11.jpg"},"meta":{"revision":0,"created":1426117913192,"version":0},"$loki":45},{"following":false,"name":"fake-account-41","imgUrl":"/assets/img/logos/ikea.jpg","class":"C","contactInfo":{"validAddress":true,"country":"fake-country","city":"fake-city","address":"41 fake address","phoneNumber":"41(000) 000 001","latitude":40.851793,"longitude":-121.379584},"modified":"2014-05-24T17:00:00.000Z","responsible":{"id":2,"name":"Bill Gates","avatar":"user-13.jpg"},"meta":{"revision":0,"created":1426117913192,"version":0},"$loki":46},{"following":false,"name":"fake-account-42","imgUrl":"/assets/img/logos/ikea.jpg","class":"A","contactInfo":{"validAddress":true,"country":"fake-country","city":"fake-city","address":"42 fake address","phoneNumber":"42(000) 000 001","latitude":40.421792999999994,"longitude":-118.339584},"modified":"2014-05-24T17:00:00.000Z","responsible":{"id":3,"name":"Marissa Mayer","avatar":"user-14.jpg"},"meta":{"revision":0,"created":1426117913192,"version":0},"$loki":47},{"following":false,"name":"fake-account-43","imgUrl":"/assets/img/logos/ikea.jpg","class":"B","contactInfo":{"validAddress":true,"country":"fake-country","city":"fake-city","address":"43 fake address","phoneNumber":"43(000) 000 001","latitude":41.641793,"longitude":-116.509584},"modified":"2014-05-24T17:00:00.000Z","responsible":{"id":4,"name":"Ginni Rometty","avatar":"user-15.jpg"},"meta":{"revision":0,"created":1426117913192,"version":0},"$loki":48},{"following":false,"name":"fake-account-44","imgUrl":"/assets/img/logos/ikea.jpg","class":"C","contactInfo":{"validAddress":true,"country":"fake-country","city":"fake-city","address":"44 fake address","phoneNumber":"44(000) 000 001","latitude":38.091792999999996,"longitude":-117.689584},"modified":"2014-05-24T17:00:00.000Z","responsible":{"id":1,"name":"Tim Cook","avatar":"user-11.jpg"},"meta":{"revision":0,"created":1426117913192,"version":0},"$loki":49},{"following":false,"name":"fake-account-45","imgUrl":"/assets/img/logos/ikea.jpg","class":"A","contactInfo":{"validAddress":true,"country":"fake-country","city":"fake-city","address":"45 fake address","phoneNumber":"45(000) 000 001","latitude":38.741792999999994,"longitude":-113.549584},"modified":"2014-05-24T17:00:00.000Z","responsible":{"id":2,"name":"Bill Gates","avatar":"user-13.jpg"},"meta":{"revision":0,"created":1426117913192,"version":0},"$loki":50},{"following":false,"name":"fake-account-46","imgUrl":"/assets/img/logos/ikea.jpg","class":"B","contactInfo":{"validAddress":true,"country":"fake-country","city":"fake-city","address":"46 fake address","phoneNumber":"46(000) 000 001","latitude":44.391793,"longitude":-119.539584},"modified":"2014-05-24T17:00:00.000Z","responsible":{"id":3,"name":"Marissa Mayer","avatar":"user-14.jpg"},"meta":{"revision":0,"created":1426117913192,"version":0},"$loki":51},{"following":false,"name":"fake-account-47","imgUrl":"/assets/img/logos/ikea.jpg","class":"C","contactInfo":{"validAddress":true,"country":"fake-country","city":"fake-city","address":"47 fake address","phoneNumber":"47(000) 000 001","latitude":41.931793,"longitude":-115.769584},"modified":"2014-05-24T17:00:00.000Z","responsible":{"id":4,"name":"Ginni Rometty","avatar":"user-15.jpg"},"meta":{"revision":0,"created":1426117913192,"version":0},"$loki":52},{"following":false,"name":"fake-account-48","imgUrl":"/assets/img/logos/ikea.jpg","class":"A","contactInfo":{"validAddress":true,"country":"fake-country","city":"fake-city","address":"48 fake address","phoneNumber":"48(000) 000 001","latitude":38.481792999999996,"longitude":-121.209584},"modified":"2014-05-24T17:00:00.000Z","responsible":{"id":1,"name":"Tim Cook","avatar":"user-11.jpg"},"meta":{"revision":0,"created":1426117913192,"version":0},"$loki":53},{"following":false,"name":"fake-account-49","imgUrl":"/assets/img/logos/ikea.jpg","class":"B","contactInfo":{"validAddress":true,"country":"fake-country","city":"fake-city","address":"49 fake address","phoneNumber":"49(000) 000 001","latitude":46.811792999999994,"longitude":-120.809584},"modified":"2014-05-24T17:00:00.000Z","responsible":{"id":2,"name":"Bill Gates","avatar":"user-13.jpg"},"meta":{"revision":0,"created":1426117913192,"version":0},"$loki":54}],"idIndex":[1,2,3,4,5,6,7,8,9,10,11,12,13,14,15,16,17,18,19,20,21,22,23,24,25,26,27,28,29,30,31,32,33,34,35,36,37,38,39,40,41,42,43,44,45,46,47,48,49,50,51,52,53,54],"binaryIndices":{"id":{"name":"id","dirty":true,"values":[]}},"objType":"Accounts","dirty":false,"cachedIndex":null,"cachedBinaryIndex":null,"cachedData":null,"transactional":false,"cloneObjects":false,"asyncListeners":false,"disableChangesApi":true,"maxId":54,"DynamicViews":[],"events":{"insert":[null],"update":[null],"close":[],"flushbuffer":[],"error":[],"delete":[null],"warning":[null]},"changes":[]},{"name":"AccountTypes","data":[{"id":1,"name":"AccountTypes 1","meta":{"revision":0,"created":1426117913198,"version":0},"$loki":1},{"id":2,"name":"AccountTypes 2","meta":{"revision":0,"created":1426117913198,"version":0},"$loki":2},{"id":3,"name":"AccountTypes 3","meta":{"revision":0,"created":1426117913198,"version":0},"$loki":3}],"idIndex":[1,2,3],"binaryIndices":{},"objType":"AccountTypes","dirty":false,"cachedIndex":null,"cachedBinaryIndex":null,"cachedData":null,"transactional":false,"cloneObjects":false,"asyncListeners":false,"disableChangesApi":true,"maxId":3,"DynamicViews":[],"events":{"insert":[null],"update":[null],"close":[],"flushbuffer":[],"error":[],"delete":[null],"warning":[null]},"changes":[]},{"name":"Environments","data":[{"id":1,"name":"Force UK","meta":{"revision":0,"created":1426117913203,"version":0},"$loki":1},{"id":2,"name":"Force Asia","meta":{"revision":0,"created":1426117913203,"version":0},"$loki":2},{"id":3,"name":"Force ES","meta":{"revision":0,"created":1426117913203,"version":0},"$loki":3}],"idIndex":[1,2,3],"binaryIndices":{},"objType":"Environments","dirty":false,"cachedIndex":null,"cachedBinaryIndex":null,"cachedData":null,"transactional":false,"cloneObjects":false,"asyncListeners":false,"disableChangesApi":true,"maxId":3,"DynamicViews":[],"events":{"insert":[null],"update":[null],"close":[],"flushbuffer":[],"error":[],"delete":[null],"warning":[null]},"changes":[]},{"name":"Views","data":[{"id":1,"name":"View 1","meta":{"revision":0,"created":1426117913208,"version":0},"$loki":1},{"id":2,"name":"View 2","meta":{"revision":0,"created":1426117913208,"version":0},"$loki":2},{"id":3,"name":"View 3","meta":{"revision":0,"created":1426117913208,"version":0},"$loki":3}],"idIndex":[1,2,3],"binaryIndices":{},"objType":"Views","dirty":false,"cachedIndex":null,"cachedBinaryIndex":null,"cachedData":null,"transactional":false,"cloneObjects":false,"asyncListeners":false,"disableChangesApi":true,"maxId":3,"DynamicViews":[],"events":{"insert":[null],"update":[null],"close":[],"flushbuffer":[],"error":[],"delete":[null],"warning":[null]},"changes":[]}],"databaseVersion":1.1,"engineVersion":1.1,"autosave":false,"autosaveInterval":5000,"autosaveHandle":null,"options":{"autoload":true},"persistenceMethod":null,"persistenceAdapter":null,"events":{"init":[null],"flushChanges":[],"close":[],"changes":[],"warning":[]},"ENV":"NODEJS","fs":{}}